City,Country,Date,Lat,Lng,Max Temp,Humidity,Cloudiness,Wind Speed
Bethel,US,1626121331,41.3712,-73.414,80.1,86,90,1.99
Carnarvon,AU,1626121331,-24.8667,113.6333,66.27,66,40,8.05
Puerto Ayora,EC,1626121331,-0.7393,-90.3518,76.96,73,69,10.6
Ushuaia,AR,1626121279,-54.8,-68.3,33.46,93,90,11.5
Palana,RU,1626121332,59.1167,159.9667,46.36,99,100,5.48
Maumere,ID,1626121332,-8.6199,122.2111,75.65,79,91,6.93
Saskylakh,RU,1626121332,71.9167,114.0833,53.49,58,99,5.82
São Filipe,CV,1626121333,14.8961,-24.4956,73.26,81,100,6.17
Mar del Plata,AR,1626121323,-38.0023,-57.5575,61.09,65,100,1.99
Pinheiro Machado,BR,1626121333,-31.5783,-53.3811,60.78,79,93,4.34
Chui,UY,1626121333,-33.6971,-53.4616,62.22,86,100,5.48
Acajutla,SV,1626121334,13.5928,-89.8275,91.8,67,86,5.26
Codrington,AU,1626121334,-38.2667,141.9667,50.11,94,100,11.5
Henties Bay,NA,1626121334,-22.116,14.2845,56.86,81,1,14.12
Busselton,AU,1626121335,-33.65,115.3333,55.04,71,34,24.11
Mackay,AU,1626121335,-21.15,149.2,61.05,88,72,9.75
Carballo,ES,1626121335,43.213,-8.691,62.06,87,17,3.65
Kirakira,SB,1626121336,-10.4544,161.9205,79.3,85,66,7.65
Salalah,OM,1626121336,17.0151,54.0924,80.69,89,90,5.75
Souillac,MU,1626121336,-20.5167,57.5167,71.98,68,40,14.97
Buala,SB,1626121336,-8.145,159.5921,79.54,85,95,8.03
Avera,US,1626121337,33.194,-82.5271,93.7,41,36,11.68
Vágur,FO,1626121337,61.4732,-6.8119,52.65,90,98,5.06
Saint-Philippe,RE,1626121337,-21.3585,55.7679,67.55,83,44,15.12
Hasaki,JP,1626121338,35.7333,140.8333,73.8,92,100,5.73
Arraial do Cabo,BR,1626121338,-22.9661,-42.0278,73.36,83,0,10.36
Tuatapere,NZ,1626121338,-46.1333,167.6833,37.81,89,65,5.01
Yumen,CN,1626121339,40.2833,97.2,72.1,44,42,13.51
Saint Anthony,US,1626121339,45.0205,-93.218,85.33,39,1,4.0
Hobart,AU,1626121318,-42.8794,147.3294,49.26,83,75,4.0
Miles City,US,1626121051,46.4083,-105.8406,87.51,23,1,8.05
Cockburn Town,TC,1626121340,21.4612,-71.1419,85.96,70,75,16.11
Bandarbeyla,SO,1626121340,9.4942,50.8122,77.81,83,100,29.08
Marsh Harbour,BS,1626121340,26.5412,-77.0636,83.86,69,77,17.05
Mananjary,MG,1626121340,-21.2167,48.3333,67.51,91,70,4.25
Omsukchan,RU,1626121341,62.5333,155.8,51.91,91,100,6.73
Norman Wells,CA,1626121341,65.282,-126.8329,73.44,35,20,3.44
Puerto Carreño,CO,1626121206,6.189,-67.4859,86.38,65,83,1.07
Odienné,CI,1626121342,9.51,-7.5692,79.16,67,99,2.91
Along,IN,1626121342,28.1667,94.7667,74.62,95,65,1.23
Lázaro Cárdenas,MX,1626121343,17.9583,-102.2,85.21,70,100,5.95
Tombouctou,ML,1626121343,20.0,-3.0,101.43,12,72,4.52
Yellowknife,CA,1626121343,62.456,-114.3525,74.32,35,75,4.0
Hithadhoo,MV,1626121344,-0.6,73.0833,82.06,75,100,4.92
Albany,US,1626121331,42.6001,-73.9662,73.67,94,100,3.96
Ābyek,IR,1626121344,36.0667,50.55,76.66,53,1,5.01
Kasongo,CD,1626121344,-4.45,26.6667,72.81,28,8,3.31
Faya,SA,1626121345,18.3851,42.4509,75.31,41,100,3.58
Rikitea,PF,1626121328,-23.1203,-134.9692,73.89,74,1,13.94
Tura,IN,1626121345,25.5198,90.2201,74.71,95,85,3.65
Olinda,BR,1626121059,-8.0089,-34.8553,76.73,69,75,11.5
Ponta do Sol,PT,1626121346,32.6667,-17.1,73.13,70,100,9.98
Vuktyl,RU,1626121346,63.8567,57.3094,43.66,79,7,4.52
Upernavik,GL,1626121346,72.7868,-56.1549,43.29,65,1,7.0
Sitka,US,1626121347,57.0531,-135.33,57.09,88,90,5.75
Piacenza,IT,1626121347,45.0468,9.6994,82.62,46,89,3.02
Boissevain,CA,1626121347,49.2306,-100.0559,79.65,34,0,16.11
Mataura,NZ,1626121348,-46.1927,168.8643,39.38,97,100,2.39
Kamaishi,JP,1626121348,39.2667,141.8833,67.46,97,64,3.09
Cabo San Lucas,MX,1626121348,22.8909,-109.9124,96.62,42,40,18.41
Hofn,IS,1626121349,64.2539,-15.2082,53.15,98,100,10.78
Kavieng,PG,1626121349,-2.5744,150.7967,82.09,77,22,15.75
Mandalgovi,MN,1626121349,45.7625,106.2708,70.92,61,8,8.55
Nísia Floresta,BR,1626121350,-6.0911,-35.2086,79.61,76,74,13.15
Negombo,LK,1626121350,7.2083,79.8358,80.01,86,92,16.17
Hamilton,US,1626121159,39.1834,-84.5333,86.22,72,40,1.99
Macusani,PE,1626121351,-14.0833,-70.4333,48.02,47,47,10.87
Monte Alegre,BR,1626121351,-2.0078,-54.0692,80.26,80,100,3.15
Half Moon Bay,US,1626121351,37.4636,-122.4286,84.54,69,20,10.36
Bluff,NZ,1626121352,-46.6,168.3333,45.55,74,73,5.21
Tuktoyaktuk,CA,1626121352,69.4541,-133.0374,60.8,63,75,10.36
Marzuq,YE,1626121352,14.4,46.4667,77.41,55,100,13.67
Pangai,TO,1626121353,-19.8,-174.35,78.91,83,75,8.05
Kaitangata,NZ,1626121353,-46.2817,169.8464,41.94,85,100,5.06
Punta Arenas,CL,1626121055,-53.15,-70.9167,37.42,87,75,29.93
Lüderitz,NA,1626121354,-26.6481,15.1594,55.72,76,37,13.96
Grand-Santi,GF,1626121354,4.25,-54.3833,79.97,95,90,2.77
Korla,CN,1626121355,41.7597,86.1469,79.52,23,69,8.23
Jijiga,ET,1626121355,9.35,42.8,65.43,69,100,11.92
Faanui,PF,1626121355,-16.4833,-151.75,79.7,73,4,21.39
Waitati,NZ,1626121356,-45.75,170.5667,41.81,79,100,3.76
Alofi,NU,1626121356,-19.0595,-169.9187,75.09,100,75,8.05
Hermanus,ZA,1626121356,-34.4187,19.2345,45.9,69,100,25.59
Arkhangel’skoye,RU,1626121357,55.8549,35.3287,67.33,69,0,5.12
Port Alfred,ZA,1626121357,-33.5906,26.891,59.32,69,41,27.56
Listvyanka,RU,1626121358,51.8535,104.8693,53.1,96,82,3.96
Vardø,NO,1626121358,70.3705,31.1107,57.4,93,75,12.66
Kuminskiy,RU,1626121358,58.6667,66.5667,48.88,74,32,6.82
Christchurch,NZ,1626121184,-43.5333,172.6333,35.02,85,42,1.01
Provideniya,RU,1626121359,64.3833,-173.3,44.71,76,74,11.18
Fort Frances,CA,1626121156,48.5999,-93.4003,88.16,36,1,5.01
Longyearbyen,SJ,1626121359,78.2186,15.6401,42.64,81,75,4.61
Maun,BW,1626121360,-19.9833,23.4167,55.36,47,0,5.75
Severo-Kuril'sk,RU,1626121360,50.6789,156.125,52.11,94,84,9.37
Zelenoborskiy,RU,1626121150,66.845,32.3622,62.89,89,95,3.22
Kapaa,US,1626121360,22.0752,-159.319,80.58,81,75,1.01
George Town,MY,1626121307,5.4112,100.3354,80.89,86,20,3.44
Yar-Sale,RU,1626121361,66.8333,70.8333,42.6,63,100,11.14
Katsuura,JP,1626121361,35.1333,140.3,76.19,91,100,7.23
Puerto Madryn,AR,1626121361,-42.7692,-65.0385,53.87,40,0,12.35
Lorengau,PG,1626121361,-2.0226,147.2712,81.97,79,35,11.01
Haines Junction,CA,1626121362,60.7522,-137.5108,57.15,67,100,4.61
Bredasdorp,ZA,1626121362,-34.5322,20.0403,45.72,81,89,9.22
Nanortalik,GL,1626121362,60.1432,-45.2371,39.97,91,78,9.82
Ginda,IN,1626121363,30.6945,78.4932,64.47,84,37,3.87
Safaga,EG,1626121363,26.7292,33.9365,91.35,39,0,6.02
Brazzaville,CG,1626121141,-4.2658,15.2832,78.98,46,23,4.12
Dickinson,US,1626121173,29.4608,-95.0513,95.07,59,40,3.0
Verkhoyansk,RU,1626121364,67.5447,133.385,53.15,80,44,2.75
Monte Santo,BR,1626121364,-10.4378,-39.3328,73.56,63,100,9.37
Deloraine,AU,1626121364,-41.5333,146.6667,47.19,98,35,2.17
Hilo,US,1626120974,19.7297,-155.09,81.28,88,90,8.05
Lompoc,US,1626121142,34.6391,-120.4579,93.69,70,1,16.11
Geraldton,AU,1626121365,-28.7667,114.6,64.81,68,40,21.85
São Félix do Xingu,BR,1626121365,-6.6447,-51.995,91.06,35,84,2.44
Khāsh,IR,1626121366,28.2211,61.2158,85.95,25,80,6.58
Honghu,CN,1626121366,29.8206,113.4621,83.73,67,100,19.3
Saint Paul Harbor,US,1626121366,57.79,-152.4072,49.86,96,100,9.98
Hong Kong,HK,1626121232,22.2855,114.1577,86.32,84,99,1.01
Bulgan,MN,1626121367,48.8125,103.5347,55.92,96,100,6.98
Cape Town,ZA,1626121367,-33.9258,18.4232,49.1,70,75,5.99
Kruisfontein,ZA,1626121368,-34.0033,24.7314,49.89,79,100,25.3
Nikolskoye,RU,1626121368,59.7035,30.7861,69.69,58,0,3.62
Gīdolē,ET,1626121368,5.65,37.3667,62.51,52,100,3.47
Atuona,PF,1626121369,-9.8,-139.0333,77.74,75,6,20.31
Esperance,AU,1626121369,-33.8667,121.9,61.57,66,50,26.75
Bouna,CI,1626121370,9.2667,-3.0,79.3,68,98,7.11
Okhotsk,RU,1626121370,59.3833,143.3,54.66,93,100,2.21
Kenai,US,1626121370,60.5544,-151.2583,62.02,69,90,6.91
Teahupoo,PF,1626121371,-17.8333,-149.2667,75.16,78,28,18.37
Vaini,TO,1626121371,-21.2,-175.2,75.36,100,75,5.75
Morgaushi,RU,1626121371,55.9643,46.7743,66.36,62,0,5.97
Avarua,CK,1626121372,-21.2078,-159.775,77.05,78,20,12.66
Téra,NE,1626121372,14.0078,0.7531,93.67,40,12,7.99
Caravelas,BR,1626121372,-17.7125,-39.2481,73.29,73,0,6.69
Araouane,ML,1626121373,18.9048,-3.5265,101.57,13,6,8.66
Rincon,US,1626121373,32.296,-81.2354,90.05,62,40,1.99
Madimba,TZ,1626121374,-10.4,40.3333,72.81,84,24,9.44
Manokwari,ID,1626121374,-0.8667,134.0833,78.26,76,82,4.18
Acapulco de Juárez,MX,1626121374,16.8634,-99.8901,87.62,70,40,8.05
Kyela,TZ,1626121374,-9.5833,33.85,64.8,75,2,3.62
College,US,1626121375,64.8569,-147.8028,74.46,36,20,0.0
Mayskiy,RU,1626121375,47.6931,40.1025,78.44,48,0,7.9
Cap Malheureux,MU,1626121376,-19.9842,57.6142,72.09,66,1,5.01
Bathsheba,BB,1626121376,13.2167,-59.5167,84.81,74,75,20.71
New Norfolk,AU,1626121377,-42.7826,147.0587,48.92,82,94,1.01
Russkiy,RU,1626121377,43.0147,131.8642,71.46,98,31,5.3
Qaanaaq,GL,1626121377,77.484,-69.3632,42.69,63,57,6.26
Asekeyevo,RU,1626121378,53.5742,52.7972,62.02,67,22,4.63
Butaritari,KI,1626121378,3.0707,172.7902,82.8,76,89,14.79
Constitución,CL,1626121378,-35.3333,-72.4167,53.71,67,6,2.21
Chapais,CA,1626121379,49.7834,-74.8492,76.78,23,0,4.52
Iquique,CL,1626121335,-20.2208,-70.1431,62.64,73,28,7.43
Vanimo,PG,1626121379,-2.6741,141.3028,77.09,91,27,6.55
Narsaq,GL,1626121380,60.9167,-46.05,48.42,84,100,2.51
Karratha,AU,1626121380,-20.7377,116.8463,71.85,91,28,6.85
Saint-Joseph,RE,1626121380,-21.3667,55.6167,66.56,79,23,14.58
Mustafakemalpaşa,TR,1626121382,40.0353,28.4117,77.76,79,0,1.68
Coquimbo,CL,1626121382,-29.9533,-71.3436,58.73,72,20,10.36
Baruun-Urt,MN,1626121382,46.6806,113.2792,64.87,82,100,3.22
Emmett,US,1626121383,43.8735,-116.4993,101.48,6,0,7.96
Saint George,US,1626121383,37.1041,-113.5841,109.63,17,1,1.01
Kindu,CD,1626121384,-2.95,25.95,72.54,37,16,0.63
Kyra,RU,1626121384,49.5776,111.9753,56.82,95,100,4.7
Inhambane,MZ,1626121384,-23.865,35.3833,66.74,75,0,9.31
Maragogi,BR,1626121385,-9.0122,-35.2225,76.33,81,3,9.78
Camacha,PT,1626121385,33.0833,-16.3333,66.96,77,40,17.27
Inuvik,CA,1626121386,68.3499,-133.7218,72.46,43,40,4.61
Kahului,US,1626121386,20.8947,-156.47,84.22,64,40,19.57
Flinders,AU,1626121386,-34.5833,150.8552,47.37,86,4,1.01
Rio Grande,BR,1626121387,-32.035,-52.0986,67.95,77,98,7.63
Guerrero Negro,MX,1626121387,27.9769,-114.0611,80.06,53,91,10.94
Gachalá,CO,1626121387,4.6924,-73.5204,78.55,85,70,3.6
Alamosa,US,1626121387,37.4695,-105.87,78.35,41,1,3.44
Thompson,CA,1626121388,55.7435,-97.8558,69.96,60,90,11.5
Carnduff,CA,1626121388,49.1667,-101.8009,80.38,35,0,16.96
Ancud,CL,1626121388,-41.8697,-73.8203,47.73,73,86,4.54
Oromocto,CA,1626121389,45.8351,-66.4792,79.25,45,75,2.3
Puerto Nariño,CO,1626121389,-3.7703,-70.3831,84.15,82,100,2.51
Port Hardy,CA,1626121389,50.6996,-127.4199,62.78,72,20,13.8
Hambantota,LK,1626121390,6.1241,81.1185,79.23,82,95,19.04
Fortuna,US,1626121390,40.5982,-124.1573,88.2,88,90,13.8
Cairns,AU,1626121391,-16.9167,145.7667,71.55,84,90,11.5
East London,ZA,1626121391,-33.0153,27.9116,62.46,61,84,21.59
Tasiilaq,GL,1626121391,65.6145,-37.6368,48.36,94,100,17.65
Nelson Bay,AU,1626121392,-32.7167,152.15,48.69,96,7,10.54
Bilibino,RU,1626121392,68.0546,166.4372,72.0,45,35,3.13
Aksu,CN,1626121392,41.1231,80.2644,76.42,32,95,2.77
Nuuk,GL,1626121393,64.1835,-51.7216,50.61,71,20,5.75
Akdepe,TM,1626121393,42.0551,59.3788,80.69,22,7,5.03
Ixtapa,MX,1626121394,20.7,-105.2,89.22,62,20,8.05
Touros,BR,1626121394,-5.1989,-35.4608,79.7,74,55,17.25
Husavik,IS,1626121394,66.0449,-17.3389,64.31,58,96,5.59
Morgan City,US,1626121395,29.6994,-91.2068,78.8,83,1,4.61
Goderich,CA,1626121395,43.7501,-81.7165,77.2,78,100,4.61
Artyom,AZ,1626121395,40.4723,50.333,75.34,61,2,10.65
Kota,IN,1626121396,25.1833,75.8333,91.58,50,95,7.36
Dunedin,NZ,1626121251,-45.8742,170.5036,41.81,79,100,1.01
Pemangkat,ID,1626121396,1.1667,108.9667,80.2,82,100,8.01
Atambua,ID,1626121397,-9.1061,124.8925,66.06,86,11,5.7
Pimenta Bueno,BR,1626121397,-11.6725,-61.1936,95.59,19,0,4.23
Vila Viçosa,PT,1626121397,38.7777,-7.4179,70.83,44,0,15.86
Yatou,CN,1626121397,37.15,122.3833,74.37,96,100,11.92
Iqaluit,CA,1626121398,63.7506,-68.5145,46.13,81,90,5.99
Oulu,FI,1626121398,65.0124,25.4682,66.31,89,0,5.75
Diamantino,BR,1626121398,-14.4086,-56.4461,92.37,15,0,6.76
General Pico,AR,1626121399,-35.6566,-63.7568,62.83,50,100,5.91
San Juan,AR,1626121206,-31.5375,-68.5364,65.55,33,28,11.79
Amahai,ID,1626121400,-3.3333,128.9167,76.66,90,85,2.39
Forsytheganj,BY,1626121400,52.6333,29.7333,69.75,86,100,3.47
Altay,CN,1626121400,47.8667,88.1167,56.41,77,3,3.42
Deputatsky,RU,1626121401,69.3,139.9,43.18,82,100,3.42
Dikson,RU,1626121401,73.5069,80.5464,33.28,91,100,20.36
Voyvozh,RU,1626121401,62.892,54.9635,45.21,72,6,3.4
Cabedelo,BR,1626121402,-6.9811,-34.8339,75.87,80,93,16.71
Grand Gaube,MU,1626121402,-20.0064,57.6608,72.0,66,1,5.01
Ilulissat,GL,1626121402,69.2167,-51.1,53.62,40,22,5.75
Hvolsvollur,IS,1626121403,63.7533,-20.2243,53.82,87,100,11.52
Kangaatsiaq,GL,1626121403,68.3065,-53.4641,41.5,83,0,9.17
Porto Velho,BR,1626121305,-8.7619,-63.9039,93.25,20,0,4.61
Bereda,ES,1626121404,43.2686,-7.5406,57.92,89,33,3.33
Yerofey Pavlovich,RU,1626121404,53.9667,121.9667,58.68,96,100,4.9
Biak,ID,1626121404,-0.9131,122.8766,75.43,88,93,6.98
Likasi,CD,1626121405,-10.9814,26.7333,59.94,53,76,3.42
Quelimane,MZ,1626121405,-17.8786,36.8883,66.15,88,0,2.3
Aksay,RU,1626121406,47.26,39.87,79.3,46,23,11.01
Pasni,PK,1626121406,25.2631,63.471,83.28,82,100,7.38
Port Lincoln,AU,1626121406,-34.7333,135.8667,50.83,75,97,8.16
Torbay,CA,1626121406,47.6666,-52.7314,71.89,69,40,18.41
Tateyama,JP,1626121407,34.9833,139.8667,76.1,89,100,6.42
Barwāni,IN,1626121407,22.0333,74.9,85.91,68,10,8.61
Kumul,CN,1626121260,42.8,93.45,80.67,29,88,13.85
Riyadh,SA,1626121408,24.6877,46.7219,95.14,10,30,6.6
Mahabalipuram,IN,1626121408,12.6264,80.1722,86.05,66,100,7.45
Den Helder,NL,1626121408,52.9599,4.7593,68.99,89,40,8.99
Fort Smith,US,1626121235,35.3859,-94.3986,86.34,55,75,1.99
Nantucket,US,1626121270,41.2835,-70.0995,71.1,94,97,10.65
Whitehorse,CA,1626121211,60.7161,-135.0538,61.57,55,90,8.99
Severomuysk,RU,1626121409,56.1481,113.4267,46.78,84,3,4.5
Narganá,PA,1626121410,9.4428,-78.5906,83.73,78,99,7.16
Oranjestad,AW,1626121410,12.524,-70.027,85.95,70,40,24.16
Edson,CA,1626121410,53.5835,-116.4356,77.11,29,1,2.3
Alice Springs,AU,1626121329,-23.7,133.8833,63.95,20,68,11.5
Mossamedes,AO,1626121411,-15.1961,12.1522,64.2,76,93,6.69
Portland,US,1626121011,45.5234,-122.6762,88.45,49,1,1.99
Hobyo,SO,1626121411,5.3505,48.5268,77.88,79,61,29.91
Ituango,CO,1626121411,7.1712,-75.764,74.37,82,48,4.32
Poum,NC,1626121412,-20.2333,164.0167,69.55,75,7,8.9
Chokurdakh,RU,1626121412,70.6333,147.9167,40.6,53,100,8.7
Ishigaki,JP,1626121412,24.3448,124.1572,84.29,76,69,13.13
Lagoa,PT,1626121413,39.05,-27.9833,67.26,74,2,17.49
Bowen,AU,1626121413,-20.0167,148.2333,61.09,93,49,7.76
Yangi Marg`ilon,UZ,1626121413,40.4272,71.7189,75.92,46,97,2.3
Itoman,JP,1626121414,26.1247,127.6694,82.42,83,75,4.61
Bouca,CF,1626121414,6.5105,18.2733,71.29,92,100,2.89
Port Elizabeth,ZA,1626121414,-33.918,25.5701,53.89,66,75,27.63
Gweru,ZW,1626121415,-19.45,29.8167,55.87,52,5,4.0
Santa Marta,CO,1626121289,11.2408,-74.199,93.34,73,40,15.75
Hurricane,US,1626121415,37.1753,-113.2899,107.71,14,25,16.49
Chilliwack,CA,1626121415,49.1747,-121.9443,83.59,50,21,3.0
Sheffield,GB,1626121416,53.383,-1.4659,62.74,89,100,5.75
Coyhaique,CL,1626121416,-45.5752,-72.0662,44.55,70,75,6.91
Castro,BR,1626121416,-24.7911,-50.0119,63.61,62,43,4.14
Havelock,US,1626121329,34.8791,-76.9013,89.56,77,75,8.99
Qarchī Gak,AF,1626121417,37.04,66.7889,86.09,14,16,16.08
Mehrān,IR,1626121417,33.1222,46.1646,96.28,10,0,15.41
Aljezur,PT,1626121418,37.3191,-8.8033,62.15,81,0,20.04
Strezhevoy,RU,1626121418,60.7333,77.5889,51.78,70,100,7.11
Cayenne,GF,1626121418,4.9333,-52.3333,86.04,76,20,5.99
Beloha,MG,1626121419,-25.1667,45.05,65.86,80,0,7.29
Necochea,AR,1626121419,-38.5473,-58.7368,50.04,67,100,9.53
Sabaudia,IT,1626121419,41.3003,13.0282,79.75,89,1,7.16
Prince Rupert,CA,1626121420,54.3161,-130.3201,64.09,73,1,4.61
San Patricio,US,1626121420,28.017,-97.5169,91.49,61,100,13.94
Rawson,AR,1626121420,-43.3002,-65.1023,53.87,38,2,15.46
Houston,US,1626121159,29.7633,-95.3633,95.0,64,40,4.0
Havøysund,NO,1626121421,70.9963,24.6622,55.63,94,99,19.37
Senanga,ZM,1626121421,-16.1167,23.2667,59.0,41,0,5.14
Bilma,NE,1626121421,18.6853,12.9164,94.37,19,29,11.07
Korfovskiy,RU,1626121422,48.2183,135.0564,69.26,95,9,4.23
Bud,US,1626121422,39.447,-86.1758,84.42,71,92,8.77
Nouadhibou,MR,1626121422,20.931,-17.0347,73.38,83,13,11.5
Vestmanna,FO,1626121423,62.1564,-7.1664,50.92,100,90,5.75
Oktyabr'skoye,RU,1626121423,43.0645,44.7417,64.54,88,96,6.71
Mahébourg,MU,1626121423,-20.4081,57.7,71.89,68,40,14.97
Comodoro Rivadavia,AR,1626121424,-45.8667,-67.5,53.46,37,0,16.11
Jamestown,US,1626121424,42.097,-79.2353,78.44,73,75,11.5
São Miguel do Tapuio,BR,1626121424,-5.5036,-41.3233,92.5,28,47,7.83
Māgadi,IN,1626121425,12.9667,77.2333,70.14,85,100,12.82
Pisco,PE,1626121425,-13.7,-76.2167,69.85,68,0,14.97
Clyde River,CA,1626121425,70.4692,-68.5914,55.63,62,90,14.97
Jacmel,HT,1626121426,18.2342,-72.5347,87.64,63,94,9.22
Newport,GB,1626121426,51.5877,-2.9984,65.44,91,65,6.87
Ahipara,NZ,1626121426,-35.1667,173.1667,53.11,67,100,16.08
Inírida,CO,1626121426,3.8653,-67.9239,85.03,74,34,0.78
Rocha,UY,1626121427,-34.4833,-54.3333,63.45,91,100,4.81
Lavrentiya,RU,1626121427,65.5833,-171.0,46.85,88,84,7.31
Egvekinot,RU,1626121427,66.3167,-179.1667,52.18,74,83,2.77
Chu,KZ,1626121428,43.5983,73.7614,78.96,28,92,7.76
La Roda,ES,1626121429,39.2167,-2.15,78.53,24,1,13.02
San Jose,US,1626121231,37.3394,-121.895,89.91,59,20,10.36
Hailey,US,1626121429,43.5196,-114.3153,89.91,21,1,9.22
Saldanha,ZA,1626121429,-33.0117,17.9442,50.05,61,98,25.12
Karakol,KG,1626121430,42.4907,78.3936,55.31,71,92,3.31
Luwuk,ID,1626121430,-0.9516,122.7875,76.57,91,94,5.19
Satis,RU,1626121430,54.9229,43.2298,63.9,69,0,3.06
Morehead,US,1626121431,37.2711,-87.1764,84.11,79,75,8.05
Sohāgpur,IN,1626121431,22.7,78.2,83.3,63,1,3.15
Ust'-Ilimsk,RU,1626121431,58.0006,102.6619,56.86,71,5,2.91
Adrar,MR,1626121432,20.5022,-10.0711,93.74,29,35,15.41
Sūsangerd,IR,1626121432,31.5608,48.1831,102.22,7,0,26.69
Tahe,CN,1626121432,52.3333,124.7333,65.44,99,100,3.33
Kavaratti,IN,1626121432,10.5669,72.642,82.62,81,91,20.42
Bethanien,NA,1626121433,-26.502,17.1583,45.52,71,65,15.43
Vyartsilya,RU,1626121433,62.1764,30.693,65.95,65,27,2.46
Lodja,CD,1626121433,-3.4833,23.4333,72.5,28,62,0.92
Pangnirtung,CA,1626121434,66.1451,-65.7125,46.4,93,90,12.66
Jackson,US,1626121429,42.4165,-122.8345,91.4,32,1,3.44
Moose Factory,CA,1626121434,51.2585,-80.6094,84.2,34,1,13.8
Airai,TL,1626121435,-8.9266,125.4092,54.07,54,6,3.69
Tiksi,RU,1626121435,71.6872,128.8694,43.61,67,53,4.7
Gallup,US,1626121436,35.5281,-108.7426,93.04,22,1,3.0
São João da Barra,BR,1626121436,-21.6403,-41.0511,75.29,80,0,9.37
Takoradze,GH,1626121437,4.8845,-1.7554,77.13,74,99,7.9
Beringovskiy,RU,1626121437,63.05,179.3167,59.81,61,64,2.84
Secăria,RO,1626121437,45.2833,25.6833,64.96,73,0,5.23
Dukat,RU,1626121438,62.55,155.55,51.35,90,100,5.79
Nishihara,JP,1626121438,26.1842,127.7558,81.68,83,40,4.61
Ampanihy,MG,1626121438,-24.7,44.75,65.28,59,0,4.54
Talnakh,RU,1626121438,69.4865,88.3972,37.76,94,100,7.34
Klaksvík,FO,1626121439,62.2266,-6.589,52.72,92,72,2.24
Kloulklubed,PW,1626121439,7.0419,134.2556,75.7,74,100,10.04
Severodvinsk,RU,1626121440,64.5635,39.8302,60.91,99,15,2.44
Ledyard Center,US,1626121440,41.4398,-72.0142,75.65,80,90,3.0
Jiutai,CN,1626121440,44.1525,125.8328,75.54,90,100,5.75
Tabou,CI,1626121440,4.423,-7.3528,76.51,78,32,9.28
Lesnoy,RU,1626121441,57.6198,63.0784,49.15,83,3,5.48
Nicoya,CR,1626121441,10.1483,-85.452,89.15,76,100,2.08
Bengkulu,ID,1626121442,-3.8004,102.2655,74.12,89,66,3.94
Bonavista,CA,1626121442,48.6499,-53.1147,59.0,89,79,6.15
Dera Gopipur,IN,1626121443,31.9,76.2167,76.37,80,59,5.26
Srednekolymsk,RU,1626121443,67.45,153.6833,40.12,90,100,10.33
Barrow,US,1626121443,71.2906,-156.7887,48.22,68,1,21.85
Jalingo,NG,1626121443,8.8833,11.3667,72.43,90,100,0.83
Scarborough,GB,1626121444,54.2797,-0.4044,60.66,90,93,6.62
Béboto,TD,1626121444,8.2668,16.939,70.68,95,100,2.26
Sancti Spíritus,CU,1626121444,21.9297,-79.4425,84.78,72,91,11.72
Marrakesh,MA,1626121187,31.6315,-8.0083,93.27,33,40,8.05
Evensk,RU,1626121445,61.95,159.2333,51.64,92,100,5.1
Palmer,US,1626121445,42.1584,-72.3287,72.77,79,90,1.01
Cidreira,BR,1626121446,-30.1811,-50.2056,61.86,78,100,10.67
Ust-Kuyga,RU,1626121446,70.0167,135.6,51.64,51,28,1.81
Maridi,SS,1626121446,4.9158,29.4742,67.64,97,98,4.21
Lugoba,TZ,1626121447,-6.45,38.3333,68.74,86,78,3.11
Ellensburg,US,1626121447,46.9965,-120.5479,96.24,27,1,1.01
Ōta,JP,1626121447,36.3,139.3667,74.71,89,100,0.92
Natal,BR,1626121178,-5.795,-35.2094,79.45,78,75,18.41
Ribeira Grande,PT,1626121448,38.5167,-28.7,73.8,56,40,13.8
Vicuña,CL,1626121448,-30.0319,-70.7081,67.77,38,100,5.06
Ust'-Omchug,RU,1626121448,61.15,149.6333,53.42,93,100,4.21
Naziya,RU,1626121449,59.8,31.3833,69.37,1,1,3.51
Mount Gambier,AU,1626121449,-37.8333,140.7667,49.91,100,90,10.36
Batemans Bay,AU,1626121449,-35.7167,150.1833,46.2,81,3,4.41
Mae Sai,TH,1626121450,20.4335,99.8762,74.52,99,33,0.74
Rūdsar,IR,1626121450,37.1376,50.288,76.98,84,28,1.61
Hefei,CN,1626121451,31.8639,117.2808,84.22,74,0,8.95
Nador,MA,1626121369,35.174,-2.9287,87.87,26,0,21.85
Ambulu,ID,1626121451,-8.345,113.6058,73.87,91,98,3.04
Ereymentau,KZ,1626121451,51.6199,73.1033,57.49,85,100,11.39
Muros,ES,1626121452,42.7762,-9.0603,63.23,73,67,9.04
Dhidhdhoo,MV,1626121452,6.8833,73.1,81.79,82,100,16.13
Sinnamary,GF,1626121452,5.3833,-52.95,81.66,81,66,7.61
Malakal,SS,1626121453,9.5334,31.6605,73.17,90,68,1.63
Mahibadhoo,MV,1626121453,3.7833,72.9667,82.31,79,99,11.3
Yerbogachën,RU,1626121454,61.2767,108.0108,58.96,74,100,4.45
Zyryanka,RU,1626121454,65.75,150.85,46.36,87,100,8.7
Fort Nelson,CA,1626121454,58.8053,-122.7002,72.99,38,75,4.61
Pevek,RU,1626121454,69.7008,170.3133,42.39,85,9,8.28
Vizinga,RU,1626121455,61.0749,50.1031,56.53,56,72,4.41
Rosarito,MX,1626121455,32.3333,-117.0333,87.93,65,9,7.36
Kolobovo,RU,1626121455,56.702,41.3417,66.92,62,5,2.86
Sioux Lookout,CA,1626121456,50.1001,-91.917,84.58,45,90,14.97
Ilo,PE,1626121456,-17.6394,-71.3375,65.26,72,0,9.22
Bol,TD,1626121456,13.4586,14.7147,82.58,67,86,6.35
Hualmay,PE,1626121457,-11.0964,-77.6139,67.15,72,100,11.1
Huarmey,PE,1626121457,-10.0681,-78.1522,69.35,71,97,12.17
Boundiali,CI,1626121457,9.5217,-6.4869,77.97,66,51,3.49
Nakło nad Notecią,PL,1626121457,53.1421,17.6018,67.21,85,12,3.89
Benghazi,LY,1626121458,32.1167,20.0667,80.38,75,0,15.79
Berdigestyakh,RU,1626121458,62.0989,126.6992,56.48,72,29,3.47
Sémbé,CG,1626121458,1.6481,14.5806,71.94,93,100,2.19
Birao,CF,1626121459,10.2849,22.7882,71.78,92,100,5.7
Robertsport,LR,1626121459,6.7533,-11.3686,78.26,83,49,12.19
Ushirombo,TZ,1626121460,-3.4919,31.9639,73.58,40,100,3.71
Jalu,LY,1626121460,29.0331,21.5482,93.4,22,0,8.59
Chute-aux-Outardes,CA,1626121460,49.1168,-68.399,71.91,40,1,10.36
Chervishevo,RU,1626121461,56.9464,65.4278,53.89,69,100,10.89
Kerema,PG,1626121461,-7.9631,145.7785,77.4,88,40,3.31
Kununurra,AU,1626121426,-15.7667,128.7333,55.38,82,80,1.14
Chicama,PE,1626121462,-7.8447,-79.1469,66.74,67,100,9.53
Andrews,US,1626121462,32.3187,-102.5457,88.65,48,40,5.75
Tres Arroyos,AR,1626121462,-38.3739,-60.2798,54.81,40,100,7.78
Santa Cruz de Barahona,DO,1626121462,18.2085,-71.1008,80.42,83,75,0.0
La Santisima Trinidad,BO,1626121463,-14.8333,-64.9,92.8,30,5,7.14
Oshakati,NA,1626121463,-17.7833,15.6833,64.42,23,6,8.48
Tiruchirappalli,IN,1626121463,10.8167,78.6833,82.15,57,100,15.95
Tigre,AR,1626121464,-34.426,-58.5796,66.25,83,0,2.3
Taoudenni,ML,1626121464,22.6783,-3.9836,104.47,14,18,4.21
Anadyr,RU,1626121464,64.75,177.4833,63.1,72,0,4.0
Kiryat Gat,IL,1626121321,31.61,34.7642,81.39,100,0,4.29
Westport,US,1626121283,41.1415,-73.3579,83.08,82,90,7.0
San Ignacio,BZ,1626121465,17.1561,-89.0714,93.34,52,40,9.22
Igarka,RU,1626121454,67.4667,86.5833,41.79,66,98,5.88
Conakry,GN,1626121303,9.538,-13.6773,80.67,89,75,9.22
Xining,CN,1626121465,36.6167,101.7667,54.32,67,5,3.42
Oka,CA,1626121466,45.4649,-74.0889,84.99,54,99,1.01
Fredericton,CA,1626121272,45.9454,-66.6656,78.37,45,1,1.01
Suntar,RU,1626121466,62.1444,117.6319,56.75,72,23,2.64
Tiarei,PF,1626121466,-17.5333,-149.3333,80.62,77,12,20.09
Anking,CN,1626121467,30.5092,117.0506,82.42,68,89,8.72
Azul,AR,1626121467,-36.777,-59.8585,58.46,58,100,2.33
Khatanga,RU,1626121467,71.9667,102.5,44.13,72,100,2.8
Severo-Yeniseyskiy,RU,1626121468,60.3725,93.0408,42.51,77,73,1.32
Kilindoni,TZ,1626121468,-7.9139,39.6668,77.14,76,9,15.21
Omaruru,NA,1626121468,-21.4333,15.9333,49.41,39,0,5.17
Shimoda,JP,1626121469,34.6667,138.95,74.1,88,100,1.95
Khovd,MN,1626121469,48.0056,91.6419,60.51,51,77,7.56
Quatre Cocos,MU,1626121469,-20.2078,57.7625,71.71,68,31,18.97
Cuiluan,CN,1626121470,47.72,128.648,67.59,91,70,2.75
Nyimba,ZM,1626121470,-14.5566,30.8149,63.14,68,18,4.05
Cherskiy,RU,1626121470,68.75,161.3,45.14,73,96,6.26
Calvinia,ZA,1626121471,-31.4707,19.776,37.42,93,100,21.45
Adamantas,GR,1626121471,36.7333,24.4333,78.22,72,0,8.32
Vestmannaeyjar,IS,1626121471,63.4427,-20.2734,52.79,93,90,9.22
Vytegra,RU,1626121472,61.0064,36.4481,68.09,67,69,7.02
Clovis,US,1626121472,36.8252,-119.7029,113.36,15,20,1.01
Aktau,KZ,1626121472,43.65,51.2,75.78,54,0,9.57
Guarujá,BR,1626121472,-23.9931,-46.2564,82.0,54,75,2.3
Marawi,PH,1626121473,7.9986,124.2928,68.65,92,98,3.2
Lebu,CL,1626121473,-37.6167,-73.65,52.88,67,0,8.84
Bambous Virieux,MU,1626121473,-20.3428,57.7575,71.85,68,40,14.97
Mayo,US,1626121474,38.8876,-76.5119,96.24,67,1,3.0
Khanbari,NP,1626121474,27.3747,87.2039,72.75,85,81,0.89
Valdivia,CL,1626121338,-39.8142,-73.2459,44.69,78,42,1.5
Isla Mujeres,MX,1626121475,21.2311,-86.731,87.85,65,94,10.27
Noumea,NC,1626121475,-22.2763,166.4572,69.01,99,100,6.69
Trabzon Province,TR,1626121476,40.9167,39.8333,73.49,78,40,0.0
Te Anau,NZ,1626121476,-45.4167,167.7167,31.62,94,31,1.05
Itarema,BR,1626121476,-2.9248,-39.9167,81.21,75,94,17.78
Vila,PT,1626121477,42.0304,-8.1588,54.93,75,73,3.53
Caiapônia,BR,1626121477,-16.9567,-51.8103,83.55,20,0,6.78
Tahoua,NE,1626121477,14.8888,5.2692,82.38,51,20,27.63
Talas,TR,1626121478,38.6908,35.5538,70.47,43,0,4.61
Puerto Baquerizo Moreno,EC,1626121211,-0.9,-89.6,72.3,76,79,10.8
Creel,MX,1626121478,27.75,-107.6333,74.68,37,83,15.12
Tacoronte,ES,1626121479,28.4769,-16.4102,75.52,58,74,6.91
Massaguet,TD,1626121479,12.4755,15.4365,84.24,44,95,5.21
Wanning,CN,1626121480,18.8003,110.3967,80.53,83,94,6.62
Aswān,EG,1626121481,24.0934,32.907,97.9,20,0,8.05
Tautira,PF,1626121481,-17.7333,-149.15,80.62,77,24,18.61
Na Wa,TH,1626121482,17.4897,104.1006,80.15,81,77,0.38
Mossendjo,CG,1626121482,-2.9506,12.7261,70.27,72,68,2.24
Wasilla,US,1626121482,61.5814,-149.4394,64.4,61,75,0.0
Esim,GH,1626121482,4.8699,-2.2405,76.28,78,97,8.12
Puerto Escondido,MX,1626121483,15.85,-97.0667,90.43,58,40,11.5
Ermelo,ZA,1626121483,-26.5333,29.9833,50.74,38,0,12.44
St. George's,GD,1626121483,12.0564,-61.7485,83.88,79,20,13.8
Sungai Raya,ID,1626121484,0.7,108.9,78.17,88,100,5.26
Beira,MZ,1626121484,-19.8436,34.8389,69.13,86,0,8.55
Isangel,VU,1626121484,-19.55,169.2667,71.31,90,100,13.62
Chapada dos Guimarães,BR,1626121485,-15.4606,-55.7497,85.66,14,0,5.64
Khanpur,PK,1626121485,28.6453,70.6567,89.24,57,100,10.0
Atar,MR,1626121485,20.5169,-13.0499,99.39,22,90,6.76
Departamento de Maldonado,UY,1626121485,-34.6667,-54.9167,62.22,87,100,5.73
Ayan,RU,1626121486,56.45,138.1667,56.5,90,100,4.23
Diapaga,BF,1626121486,12.0708,1.7889,84.38,59,99,3.02
Mehamn,NO,1626121486,71.0357,27.8492,55.58,96,100,20.4
Honiara,SB,1626121487,-9.4333,159.95,76.24,89,87,6.17
Khilok,RU,1626121487,51.3674,110.4676,53.58,97,8,0.69
Tumpat,MY,1626121488,6.1978,102.171,78.78,89,20,2.3
Aklavik,CA,1626121488,68.2191,-135.0107,72.43,31,97,5.35
Buritis,BR,1626121488,-15.6178,-46.4233,82.27,27,0,3.98
Saint-Pierre,RE,1626121489,-21.3393,55.4781,67.64,77,20,8.05
Katobu,ID,1626121489,-4.9408,122.5276,73.27,93,96,3.42
Laas,IT,1626121489,46.6166,10.7002,74.28,95,94,5.37
Santa Rosa,PH,1626121490,14.3122,121.1114,83.08,78,100,7.67
Khani,GE,1626121490,41.9563,42.9566,69.37,95,94,0.92
Ocampo,MX,1626121490,21.65,-101.5,66.47,57,100,10.74
Tazovsky,RU,1626121490,67.4667,78.7,38.41,77,100,10.96
Sai Buri,TH,1626121491,6.7013,101.6168,77.72,86,97,3.4
Tiznit Province,MA,1626121491,29.5833,-9.5,90.1,29,100,5.08
Cacoal,BR,1626121491,-11.4386,-61.4472,95.16,20,0,3.49
Toamasina,MG,1626121492,-18.1667,49.3833,64.4,100,20,2.3
Hof,DE,1626121492,50.3167,11.9167,65.91,68,43,1.99
Dolinsk,RU,1626121492,47.35,142.8,60.66,95,58,5.88
San Luis,AR,1626121493,-33.295,-66.3356,64.56,50,5,9.15
Tarnogskiy Gorodok,RU,1626121493,60.4997,43.5761,66.36,83,47,2.66
Abu Kamal,SY,1626121493,34.4506,40.9171,95.27,16,0,14.56
Manaure,CO,1626121493,11.7751,-72.4445,90.86,49,100,19.89
Wufeng,CN,1626121494,27.45,104.8333,63.52,91,100,3.47
Agüimes,ES,1626121494,27.9054,-15.4461,77.67,73,12,20.71
Makkah al Mukarramah,SA,1626121495,21.4267,39.8261,89.58,31,57,7.99
Krasnoyarskiy,RU,1626121495,51.965,59.8967,60.1,56,88,7.02
Sistranda,NO,1626121495,63.7256,8.834,60.91,89,33,8.32
Qasigiannguit,GL,1626121496,68.8193,-51.1922,53.85,77,24,4.38
Islamkot,PK,1626121496,24.6997,70.177,84.9,72,100,7.45
Xiazhen,CN,1626121496,34.8022,117.1117,79.36,87,100,10.78
Nhulunbuy,AU,1626121497,-12.2333,136.7667,74.01,78,8,5.75
Maralal,KE,1626121497,1.0968,36.698,58.57,79,83,4.25
Vila Franca do Campo,PT,1626121497,37.7167,-25.4333,70.21,72,23,12.86
Meulaboh,ID,1626121498,4.1363,96.1285,75.78,87,97,2.91
Broken Hill,AU,1626121457,-31.95,141.4333,47.62,66,100,4.83
Northam,GB,1626121498,51.0333,-4.2167,63.39,93,18,12.1
El Ocotito,MX,1626121498,17.25,-99.5667,79.93,55,100,0.85
Hinckley,GB,1626121499,52.5389,-1.3761,64.71,84,84,1.01
Pachino,IT,1626121499,36.7186,15.0907,82.6,73,0,10.11
Masterton,NZ,1626121499,-40.9597,175.6575,43.77,97,32,3.78
Kollo,NE,1626121500,13.3043,2.339,93.63,46,87,6.87
Camopi,GF,1626121500,3.1655,-52.3158,79.75,91,86,2.53
Pinega,RU,1626121500,64.7001,43.3936,57.2,77,66,3.76
Olafsvik,IS,1626121501,64.8945,-23.7142,51.35,88,100,10.92
Jūnāgarh,IN,1626121501,19.8667,82.9333,79.81,80,100,2.62
Suez,EG,1626121501,29.9737,32.5263,79.41,68,0,12.44
Pochutla,MX,1626121502,15.7432,-96.4661,88.83,59,56,6.33
Kikwit,CD,1626121503,-5.041,18.8162,74.86,19,99,2.48
Mtambile,TZ,1626121504,-5.3833,39.7,75.67,83,17,12.71
Zaysan,KZ,1626121504,47.4667,84.8667,63.37,57,14,6.02
San Miguel,SV,1626121504,13.4833,-88.1833,96.4,61,20,3.44
Sacoşu Turcesc,RO,1626121505,45.6519,21.4289,75.31,73,0,5.75
Morón,AR,1626121347,-34.6534,-58.6198,65.89,87,100,3.53
Calamar,CO,1626121505,10.2511,-74.9146,89.55,39,40,5.84
Bambanglipuro,ID,1626121506,-7.95,110.2833,55.6,91,54,5.17
Kupang,ID,1626121506,-10.1667,123.5833,73.0,79,49,10.8
Asău,RO,1626121506,46.4333,26.4,71.76,98,5,4.76
Río Gallegos,AR,1626121507,-51.6226,-69.2181,39.25,60,0,28.77
Zhigalovo,RU,1626121507,54.8097,105.1578,56.17,82,76,1.34
Dicabisagan,PH,1626121508,17.0818,122.4157,79.75,88,100,0.29
Mahon,ES,1626121508,39.8885,4.2658,75.76,83,75,19.57
Kaeo,NZ,1626121508,-35.1,173.7833,50.32,83,100,8.5
Oruzgan,AF,1626121509,32.8333,66.0,80.02,16,0,1.03
Krasnovishersk,RU,1626121509,60.4078,57.082,47.19,70,3,4.83
Altamira,BR,1626121509,-3.2033,-52.2064,86.09,74,40,5.75
Bundaberg,AU,1626121510,-24.85,152.35,57.22,99,4,1.99
Kenitra,MA,1626121510,34.261,-6.5802,71.73,70,0,6.33
Sabang,ID,1626121510,5.8933,95.3214,82.69,74,93,16.87
Lilongwe,MW,1626121511,-13.9669,33.7873,61.99,74,96,2.57
Emerald,AU,1626121511,-23.5333,148.1667,53.98,60,12,5.75
Maputo,MZ,1626121458,-25.9653,32.5892,69.48,49,0,14.97
Båtsfjord,NO,1626121512,70.6345,29.7185,57.42,100,75,3.44
Ashland,US,1626121380,40.8167,-82.2665,79.52,81,71,9.84
Nosy Varika,MG,1626121512,-20.5833,48.5333,66.94,89,61,2.28
Grindavik,IS,1626121513,63.8424,-22.4338,53.55,93,75,14.97
Coração de Jesus,BR,1626121513,-16.6853,-44.365,79.52,29,1,4.16
Aden,YE,1626121514,12.7794,45.0367,85.84,77,100,18.52
Luba,GQ,1626121514,3.4568,8.5547,78.69,84,100,6.06
Acaraú,BR,1626121357,-2.8856,-40.12,81.99,73,100,18.68
Puerto El Triunfo,SV,1626121514,13.2833,-88.55,97.66,66,98,1.59
Gazojak,TM,1626121515,41.1875,61.4036,86.32,21,4,5.77
Ketchikan,US,1626121407,55.3422,-131.6461,63.07,67,90,6.91
Margate,GB,1626121515,51.3813,1.3862,63.7,95,94,1.99
